"","Notes.F.S.","flag","ID","taxonomy.genus","taxonomy.sp","taxonomy.subsp","taxonomy.orig_genus","taxonomy.sp_author","taxonomy.gen_author","taxonomy.orig_sp","taxonomy.subgen","taxonomy.gen_status","taxonomy.sp_status","ref.pic","cephalon","cranidium","pygidum","morphology.eyes","morphology.ontogeny","geography.locality","geography.country","geography.lat","geography.long","geography.state","geography.county","stratigraphy.formation","stratigraphy.min_age","stratigraphy.max_age","stratigraphy.ref_age","stratigraphy.basin","stratigraphy.environment","enterer.metadata","enterer.landmark","enterer.date"
"47","Lochkovian","to.inc.lochkovian","GSC_95876","Odontopleura","Odontopleura arctica",NA,"Odontopleura (Odontopleura)","Adrain and Chatterton 1990","Emmrich 1839","arctica","Odontopleura",NA,NA,"Adrain and Chatterton 1990",TRUE,NA,TRUE,TRUE,"holaspis","Marshall Peninsula","Canada",75.433,-96.083,"Nuvanut","Cornwallis Island","Cape Phillips Formation","Llandovery",NA,"Adrain and Chatterton 1990",NA,"carbonate",NA,"FS",NA
"74",NA,"x","Poroscutellum","Poroscutellum","Poroscutellum porosum",NA,NA,"Barrande 1846","Snajdr 1958","porosum",NA,NA,NA,"Snajdr et al 1990",TRUE,NA,TRUE,TRUE,"holaspis","Dvorce-Prokop Limestone","Czech Republic",50,14,NA,NA,"Praha","Pragian",NA,"Chlupac 1982",NA,NA,"Randolfe EA","Male (C) FS (P)",NA
"75",NA,"x","Bonner_CEPH_Tafel_2_fig31","Acastellina","Acastellina sp",NA,NA,NA,"Richter and Richter 1954",NA,NA,NA,"spp","Basse 2003",TRUE,NA,NA,TRUE,"holaspis","Eifel-Mulde","Germany",50.6173049753127,6.4208248194946,NA,NA,"Heisdorf-Schichten","Emsian",NA,"Basse 2003",NA,"siliciclastic","Randolfe EA","Randolfe EA",NA
"76",NA,"x","IGR_11232","Breizhops","Breizhops bigranulosus",NA,"Pseudocryphaeus","Morzadec 1983","Morzadec 1983",NA,NA,NA,NA,"Morzadec 1983",TRUE,NA,NA,TRUE,"holaspis","Lanvoy","France",48.3016350401158,-4.22451433967814,NA,NA,"Kerdreolet Formation","Emsian",NA,"Morzadec 1983",NA,NA,"Serra F","Randolfe EA",NA
"77",NA,"x","IGR_11305","Heliopyge","Heliopyge porsguenensis",NA,NA,"Morzadec 1983","Haas and Mensink 1970",NA,NA,NA,NA,"Morzadec 1983",TRUE,NA,NA,TRUE,"holaspis","Plougastel-Daoulas","France",48.3639521779949,-4.38358019290434,NA,"Finistère","Traonliors Formation","Frasnian",NA,"Morzadec 1983","Rade de Brest","carbonate","Serra F","Randolfe EA",NA
"78",NA,"x","Morzadec_2001_Plate_12_2a","Comura","Comura bultyncki",NA,NA,"Morzadec 2001","Richter and Richter 1926",NA,NA,NA,NA,"Morzadec 2001",TRUE,NA,NA,TRUE,"holaspis","coupe d'Oufatene","Morocco",30.8321758801117,-4.90365512172326,"Draa-Talifatet","Ma'der","El Oftal Formation","Emsian",NA,"Morzadec 2001",NA,"carbonate","Balseiro D","Randolfe EA",NA
"79",NA,"x","Morzadec_2001_Plate_15_3e","Walliserops","Walliserops trifurcatus",NA,NA,"Morzadec 2001","Morzadec 2001",NA,NA,NA,NA,"Morzadec 2001",TRUE,NA,NA,TRUE,"holaspis","Jbel Gara","Morocco",30.0124628702169,-7.11015112472988,"Souss-Masa","Tata Province","Timrhanrhart Formation","Emsian",NA,"Morzadec 2001",NA,"carbonate","Balseiro D","Randolfe EA",NA
"80",NA,"x","Morzadec_2001_Plate_9_8a","Hollardops","Hollardops burtandmimiae",NA,"Philipsmithiana","Lieberman and Kloc 1997","Morzadec 1997",NA,NA,NA,NA,"Morzadec 2001",TRUE,NA,NA,TRUE,"holaspis","Foum Zguid","Morocco",30.0765208848491,-6.88066008904462,"Souss-Masa",NA,"Timrhanrhart Formation","Emsian",NA,"Morzadec 2001",NA,"carbonate","Balseiro D","Randolfe EA",NA
"81",NA,"x","NHM_It27126","Erbenochile","Erbenochile erbeni",NA,"Odontochile (Erbenochile)","Alberti 1981","Alberti 1981",NA,NA,NA,NA,"Chatterton et al 2006",TRUE,NA,NA,TRUE,"holaspis","Jbel Gara el Zguilma","Morocco",29.7144458506943,-6.691529014,"Souss-Masa","Tata Province","Timrhanrhart Formation","Emsian",NA,"Chatterton et al 2006",NA,"carbonate","Balseiro D","Randolfe EA",NA
"82","Lochkovian","to.inc.lochkovian","NMV_P313297","Kosovopeltis","Kosovopeltis trepida",NA,"Kosovopeltis","Holloway and Lane 2012","Snajdr 1958","trepida",NA,NA,NA,"Holloway and Lane 2012",TRUE,NA,NA,TRUE,"holaspis","Orange district","Australia",-33,148,NA,NA,"Mirrabooka","Wenlock",NA,"Holloway and Lane 2012",NA,NA,"Randolfe EA","Randolfe EA",NA
"83",NA,"x","SMF_79001B","Acastava","Acastava schmidti",NA,"Acaste","Richter 1909","Richter and Richter 1954",NA,NA,NA,NA,"Basse 2003",TRUE,NA,NA,TRUE,"holaspis","Oberstadtfeld","Germany",50.1739499633654,6.76975053910268,NA,NA,"Gladbach-Schichten","Emsian",NA,"Basse 2003",NA,"siliciclastic","Randolfe EA","Randolfe EA",NA
"84",NA,"x","SMF_81a","Neometacanthus","Neometacanthus stellifer",NA,"Phacops","Burmeister 1843","Richter and Richter 1948",NA,NA,NA,NA,"Basse 2003",TRUE,NA,NA,TRUE,"holaspis","Gerolstein","Germany",50.2144766548442,6.65082824482215,"Rheinland-Pfalz","Vulkaneifel","Ahrdorf Formation","Eifelian",NA,"Basse 2003",NA,"siliciclastic","Balseiro D","Randolfe EA",NA
"85",NA,"x","SMF_RX_1316d","Rhenops","Rhenops anserinus",NA,"Cryphaeus","Richter and Richter 1916","Richter and Richter 1943",NA,NA,NA,NA,"Basse 2003",TRUE,NA,NA,TRUE,"holaspis","Raum Ober-Niederstadtfeld","Germany",50.1669919515279,6.76433740697921,NA,NA,"Gladbach-Schichten","Emsian",NA,"Basse 2003",NA,"siliciclastic","Randolfe EA","Randolfe EA",NA
"86",NA,"x","SMF_X_82f","Asteropyge","Asteropyge comes",NA,NA,"Basse 2003","Hawle and Corda 1847",NA,NA,NA,NA,"Basse 2003",TRUE,NA,NA,TRUE,"holaspis","Hillesheim","Germany",50.2917675908912,6.67478484449128,NA,NA,"Ahrdorf","Eifelian",NA,"Basse 2003",NA,"carbonate","Randolfe EA","Randolfe EA",NA
"87",NA,"x","Morzadec_2001_Plate_11_1a","Coltraneia","Coltraneia oufatenensis",NA,NA,"Morzadec 2001","Lieberman and Kloc 1997",NA,NA,NA,NA,"Morzadec 2001",TRUE,NA,TRUE,TRUE,"holaspis","coupe d'Oufatene","Morocco",30.8321758801117,-4.90365512172326,"Draa-Talifatet","Ma'der","El Oftal Formation","Emsian",NA,"Morzadec 2001",NA,"carbonate","Balseiro D","REA (C), FS (P)",NA
"88",NA,"x","Morzadec_2001_Plate_13_5a","Psychopyge","Psychopyge praestans",NA,NA,"Morzadec 1950","Termier and Termier 1950",NA,NA,NA,NA,"Morzadec 2001",TRUE,NA,TRUE,TRUE,"holaspis","Jbel Gara","Morocco",30.0124628702169,-7.11015112472988,"Souss-Masa","Tata Province","Timrhanrhart Formation","Emsian",NA,"Morzadec 2001",NA,"carbonate","Balseiro D","REA (C), FS (P)",NA
"89",NA,"x","Morzadec_2001_Plate_3_4a","Methacanthina","Methacanthina issoumourensis",NA,NA,"Morzadec 2001","Pillet 1954",NA,NA,NA,NA,"Morzadec 2001",TRUE,NA,TRUE,TRUE,"holaspis","Jbel Issoumour","Morocco",31.0886646584573,-5.01522006127014,"Draa-Talifatet","Ma'der","Ihandar Formation","Pragian",NA,"Morzadec 2001",NA,"carbonate","Balseiro D","REA (C), FS (P)",NA
"90",NA,"x","Morzadec_2001_Plate_4_5a","Kayserops","Kayserops megaspina",NA,NA,"Morzadec 2001","Delo 1935",NA,NA,NA,NA,"Morzadec 2001",TRUE,NA,TRUE,TRUE,"holaspis","Ma'der","Morocco",30.9850236525022,-4.8641740681368,"Draa-Talifatet","Ma'der",NA,"Emsian",NA,"Morzadec 2001",NA,"carbonate","Balseiro D","REA (C), FS (P)",NA
"91",NA,"x","USNM_489773","Cordania","Cordania wessmani",NA,"Cordania","Adrain and Kloc 1997","Clarke 1892","wessmani",NA,NA,NA,"Adrain and Kloc 1997",TRUE,NA,TRUE,TRUE,"holaspis","Wessman Quarry","United States",34.5,-96.5,"Oklahoma","Pontotoc","Haragan","Lochkovian",NA,"Adrain and Kloc 1997",NA,NA,"Randolfe EA","REA (C), FS (P)",NA
"92",NA,"x","IRSNB13012","Cyphaspis","Cyphaspis kippingi",NA,"Cyphaspis","Van Viersen and Holland 2016","Burmeister 1843","kippingi",NA,NA,NA,"Van Viersen and Holland 2016",TRUE,NA,NA,TRUE,"holaspis","Issoumour","Morocco",31.0908333333,4.87666666667,NA,NA,"Tazoulait Formation","Emsian",NA,"Van Viersen and Holland 2016",NA,"siliciclastic","Munoz DF","Rustan JJ",NA
"93","Emsian","to.inc.emsian","MCZ103493","Aulacopleura","Aulacopleura koninckii",NA,"Arethusa","Barrande 1846","Hawle and Corda 1847","koninckii",NA,NA,NA,"Hughes and Chapman 1995",TRUE,NA,NA,TRUE,"holaspis","Lodenice","Czech Republic",49.987587,14.14034,"Central Bohemia","Beroun","Motol Formation","Wenlock",NA,"Hughes and Chapman 1995","Bohemia","siliciclastic","Munoz DF","Rustan JJ",NA
"94",NA,"x","MGCU451059","Crotalocephalus","Crotalocephalus zinzilbanicus",NA,"Crotalocephalus","Ivanova and Owens 2008","Salter 1853","zinzilbanicus",NA,NA,NA,"Owens et al 2010",TRUE,NA,NA,TRUE,"holaspis","Zinzilban Sai, Zerafshan Range","Uzbekistan",39.1614686249382,67.5066048667298,"Karshi",NA,"Khodzhakurgan Formation","Emsian",NA,"Owens et al 2010",NA,"carbonate","Munoz DF","Rustan JJ",NA
"95",NA,"x","NMNH245613","Deltacephalaspis","Deltacephalaspis comis",NA,"Deltacephalaspis","Eldredge and Branisa 1980","Eldredge and Branisa 1980","comis","Deltacephalaspis",NA,NA,"Eldredge and Branisa 1980",TRUE,NA,NA,TRUE,"holaspis","Curuyo","Bolivia",-21.475560071009,-64.6466701113714,"Tarija","Cercado","Gamoneda Formation","Pragian",NA,"Grahn 2005","Tarija","siliciclastic","Munoz DF","Rustan JJ",NA
"96",NA,"x","NMNH245618","Schizostylus","Schizostylus brevicaudatus",NA,"Dalmanites","Kozlowski 1923","Delo 1935","brevicaudatus","Schizostylus",NA,"cf","Eldredge and Branisa 1980",TRUE,NA,NA,TRUE,"holaspis","Padilla","Bolivia",-19.3104336443831,-64.3117058276736,"Chuquisaca","Tomina","Icla Formation","Pragian",NA,"Grahn 2005","Subandinas","siliciclastic","Munoz DF","Rustan JJ",NA
"97",NA,"x","USNM8975","Harpidella","Harpidella spinafrons",NA,"Otarion","Williams 1935","MCoy 1849","spinafrons",NA,NA,NA,"Adrain and Chatterton 1995",TRUE,NA,NA,TRUE,"holaspis","West Brook","United States",42.637954,-75.489603,"New York","Chenango","Tully Formation","Givetian",NA,"Adrain and Chatterton 1995",NA,"carbonate","Munoz DF","Rustan JJ",NA
"98","Lochkovian - Eifelian","to.inc.lochkovian","Ar51664","Leonaspis","Leonaspis coronata","bufo","Leonaspis","Salter 1853","Richter and Richter 1917","marklini",NA,NA,NA,"Ramsköld 1984",TRUE,NA,NA,TRUE,"holaspis","Eksta parish type locality","Sweden",18.2064,57.2865,"Gotland",NA,"Mulde Formation","Wenlock",NA,"Ramsköld 1984",NA,NA,"Serra F","Serra F",NA
"100",NA,"x","BGS_GSM23700","Waribole","Waribole dunhevidensis",NA,"Proetus","Thomas 1909","Richter and Richter 1926",NA,NA,NA,NA,"Owens 1994",TRUE,NA,TRUE,TRUE,"holaspis","Landlake","UK",50.6137889364319,-4.36785697581787,"Cornwall",NA,"Petherwin Formation","Famennian",NA,"Owens 1994",NA,NA,"Balseiro D","Serra F",NA
"101",NA,"x","Cronier_2015_Fig3a_p558","Prokops","Prokops prokopi",NA,"Phacops","Chlupác 1971","Chlupác 1971","prokopi",NA,NA,NA,"Cronier et al 2015",TRUE,NA,NA,TRUE,"holaspis","Malá Chuchle","Czech Republic",50.025111,14.379655,"Prague",NA,"Dvorce-Prokop Limestone","Emsian",NA,"Cronier et al 2015","Prague","carbonate","Munoz DF","Serra F",NA
"102",NA,"x","DCP-Rest_Stk_967-100-1-7a","Dalejeproetus","Dalejeproetus scipio",NA,NA,"Basse 1997","Snajdr 1977",NA,NA,"?",NA,"Basse 2003",TRUE,NA,TRUE,TRUE,"holaspis","Erndtebrück","Germany",50.9844159822436,8.2523786525949,"Nordrhein-Westfalen","Siegen-Wittgenstein","Loogh Formation","Givetian",NA,"Basse 2003",NA,"carbonate","Balseiro D","Serra F",NA
"103",NA,"x","GPIN_96883","Mirabole","Mirabole crassa","xiakouensis",NA,"Yuan and Xiang 1998","Osmolska 1962",NA,"Mirabole",NA,NA,"Yuan and Xiang 1998",TRUE,NA,TRUE,TRUE,"holaspis","Xiakou section D, Yishan","China",24.325,109.09,"South China","Guangxi","Yonghsien","Famennian",NA,"Yuan and Xiang 1998",NA,"carbonate","Balseiro D","Serra F",NA
"104","Lochkovian - Emsian","to.inc.lochkovian","GSC122371","Calymene","Calymene barnesi",NA,NA,"Chatterton and Ludvigsen 2004","Brongniart 1822",NA,NA,NA,NA,"Chatterton and Ludvigsen 2004",TRUE,NA,TRUE,TRUE,"holaspis","Ste Marie River Road Anticosti Island (AN22)","Canada",49.7401388888888,-63.8994999999999,"Quebec","Minganie Regional County Municipality","Becscie Formation","Rhuddanian",NA,"Chatterton and Ludvigsen 2004",NA,NA,"Serra F","Serra F",NA
"105",NA,"x","ICh_3343a","Eocryphops","Eocryphops termieri",NA,"Phacops","Richter and Richter 1943","Richter and Richter 1931","termieri",NA,NA,"cf","Chlupac 1977",TRUE,NA,NA,TRUE,"holaspis","Chotec","Czech Republic",49.988796,14.291793,"Prague",NA,"Chotec Formation","Eifelian",NA,"Clupac 1977","Prague","carbonate","Munoz DF","Serra F",NA
"106","Lochkovian - Pragian","to.inc.lochkovian","ICh_3443","Denckmannites","Denckmannites volborthi",NA,"Phacops","Barrande 1852","Wedekind 1914","volborthi",NA,NA,NA,"Chlupac 1977",TRUE,NA,NA,TRUE,"holaspis","Lochkov","Czech Republic",49.99412,14.32336,"Prague",NA,"Kopanina Formation","Ludlow",NA,"Clupac 1977","Prague","siliciclastic","Munoz DF","Serra F",NA
"107",NA,"x","IRSNB_a13437","Radiaspis","Radiaspis taghonorum",NA,NA,"Van Viersen and Magrean 2019","Richter and Richter 1917",NA,NA,NA,NA,"Van Viersen and Magrean 2019",TRUE,NA,NA,TRUE,"holaspis","Resteigne","Belgium",50.083974638815,5.17606200059671,NA,NA,"Hanonet Formation","Givetian",NA,"Van Viersen and Magrean",NA,"carbonate","Serra F","Serra F",NA
"108",NA,"x","IRSNBa12430","Nyterops","Nyterops hollandi",NA,"Nyterops","Van Viersen 2007","Struve 1972","hollandi",NA,NA,NA,"Van Viersen 2007",TRUE,NA,NA,TRUE,"holaspis","Resteigne Belgium","Belgium",50.090967,5.179737,"Namur",NA,"Hanonet Formation","Eifelian",NA,"Van Viersen 2007",NA,"carbonate","Munoz DF","Serra F",NA
"109",NA,"x","KSGR_VI-672_334","Plagiolaria","Plagiolaria kitabi",NA,"Plagiolaria","Cronier and Tsmeyrek 2010","Kegel 1952","kitabi",NA,NA,NA,"Cronier and Tsmeyrek 2010",TRUE,NA,NA,TRUE,"holaspis","Kitab State Geological Reserve","Uzbekistan",39.151995,67.242418,"Dzhauz",NA,"Akbasai Formation","Famennian",NA,"Cronier and Tsmeyrek 2010",NA,"siliciclastic","Munoz DF","Serra F",NA
"110","(lm 11 not present)","lm.miss","MGCU_48_814","Lioharpes","Lioharpes venulosus",NA,NA,"Hawle and Corda 1847","Whittington 1950",NA,NA,NA,"aff","Owens et al 2010",TRUE,NA,NA,TRUE,"holaspis","Turkestan Range","Uzbekistan",39.8126536997888,69.7347539308592,NA,NA,"Dzhalpak Formation","Lochkovian",NA,"Owens et al 2010",NA,NA,"Serra F","Serra F",NA
"111","Lochkovian","to.inc.lochkovian","MS47","Spiniscutellum","Spiniscutellum umbelliferum",NA,"Bronteus","Beyrich 1845","Snajdr 1960",NA,NA,NA,NA,"Snajdr 1960",TRUE,NA,NA,TRUE,"early holaspis","Kosor valley, Cerna rokle","Czech Republic",49.987584,14.328013,"Central Bohemia","West Prague","Lochkov-beds","Ludlow",NA,"Snajdr 1960",NA,NA,"Balseiro D","Serra F",NA
"118","Lochkovian - Emsian","to.inc.lochkovian","NM_9324","Ananaspis","Ananaspis fecunda","fecunda","Phacops","Barrande 1846","Campbell 1967","foecundus",NA,NA,NA,"Chlupac 1977",TRUE,NA,NA,TRUE,"holaspis","Dlouhá hora","Czech Republic",50.791062,14.924743,"Liberec",NA,"Kopanina Formation","Ludlow",NA,"Clupac 1977","Prague","siliciclastic","Munoz DF","Serra F",NA
"119","Lochkovian ","to.inc.lochkovian","NM_L6127","Bohemoharpes","Bohemoharpes naumanni",NA,"Harpes","Barrande 1852","Vanek 1963","naumanni",NA,NA,NA,"Ebach and MacNamara 2002",TRUE,NA,NA,TRUE,"holaspis",NA,"Czech Republic",NA,NA,NA,NA,NA,NA,NA,NA,NA,NA,"Serra F","Serra F",NA
"120",NA,"x","NML_7943","Lochkovella","Lochkovella misera",NA,"Phacops","Barrande 1852","Chlupác 1972","miser",NA,NA,NA,"Chlupac 1977",TRUE,NA,NA,TRUE,"holaspis","Kosor","Czech Republic",49.993925,14.324525,"Prague",NA,"Lochkov Formation","Lochkovian",NA,"Chlupac 1977","Prague","carbonate","Munoz DF","Serra F",NA
"122","Lochkovian - Pragian","to.inc.lochkovian","NMV_P123401","Dicranurus","Dicranurus sp nov",NA,NA,"Ramsköld 1991","Conrad 1841",NA,NA,NA,NA,"Ramsköld 1991",TRUE,NA,NA,TRUE,"holaspis","Boree Creek","Australia",-35.0936217131231,146.610730750339,"New South Wales",NA,"Boree Creek Formation","Sheinwoodian",NA,"Ramsköld 1991",NA,NA,"Serra F","Serra F",NA
"123",NA,"x","NMV_P144043","Sculptoproetus","Sculptoproetus sp",NA,NA,NA,"Erben 1951",NA,NA,NA,NA,"Owens 1994",TRUE,NA,TRUE,TRUE,"holaspis","Lilydale","Australia",-37.7479816497911,145.368974053153,"Victoria",NA,"Humevale Formation","Lochkovian",NA,"Owens 1994",NA,"siliciclastic","Balseiro D","Serra F",NA
"124",NA,"x","NYSM4733","Monodechenella","Monodechenella macrocephala",NA,NA,"Hall 1861","Stumm 1953","Proetus",NA,NA,NA,"Owens 1994",TRUE,NA,NA,TRUE,"holaspis","Canandaigua Lake","United States",42.7994456950718,-77.3046529357866,"New York",NA,"Hamilton Group","Givetian",NA,"Owens 1994",NA,"siliciclastic","Balseiro D","Serra F",NA
"125",NA,"x","SBNM_CF682","Thysanopeltis","Thysanopeltis speciosa",NA,"Thysanopeltis","Hawle and Corda 1847","Hawle and Corda 1847","speciosa",NA,NA,NA,"Snajdr 1960",TRUE,NA,NA,TRUE,"holaspis","Koneprusy","Czech",49.266,14.065,"Central Bohemia","Beroun","Suchomasty Limestones","Emsian",NA,"Mergl and Jimenez Sanchez 2015","Barrandian area","carbonate","Balseiro D","Serra F",NA
"126",NA,"x","SBNM-CF_581","Pragoproetus","Pragoproetus menamiensis",NA,"Unguliproetus","Pribyl 1949","Snajdr 1977",NA,NA,NA,NA,"Johnson and Fortey 2012",TRUE,NA,NA,TRUE,"holaspis","Menany","Czech Republic",49.91,14.12,NA,NA,"Veanrice Limeston","Pragian",NA,"Johnson and Fortey 2012",NA,"carbonate","Balseiro D","Serra F",NA
"127","Blind (LM 8, 9, 14 not present)","lm.miss","SMF_57451","Helioproetus","Helioproetus carintiacus",NA,"Proetus(?)","Drevermann 1901","Richter and Richter 1919",NA,NA,NA,NA,"Feist et al 2000",TRUE,NA,NA,TRUE,"holaspis","Apricke","Germany",51.395537645901,7.8130436120855,"Sauerland",NA,"Wocklum Limestone","Famennian",NA,"Feist et al 2000",NA,"carbonate","Balseiro D","Serra F",NA
"128","Blind (LM 8, 9, 14 not present)","lm.miss","SMF_57476","Silesiops","Silesiops schindewolfi",NA,NA,"Richter and Richter 1919","Chlupac 1966",NA,NA,NA,NA,"Feist et al 2000",TRUE,NA,NA,TRUE,"holaspis","Apricke","Germany",51.39553765,7.8130436120855,"Sauerland",NA,"Wocklum Limestone","Famennian",NA,"Feist et al 2000",NA,"carbonate","Balseiro D","Serra F",NA
"129","Blind (LM 8, 9, 14 not present)","lm.miss","SMF_57503","Caunoproetus","Caunoproetus palensis",NA,NA,"Richter 1913","Richter and Richter 1919",NA,"Chaunoproetus",NA,NA,"Feist et al 2000",TRUE,NA,NA,NA,"holaspis","Apricke","Germany",51.39553765,7.8130436120855,"Sauerland",NA,"Wocklum Limestone","Famennian",NA,"Feist et al 2000",NA,"carbonate","Balseiro D","Serra F",NA
"130",NA,"x","SMF_57513","Cryphops","Cryphops cryptophthalmus",NA,"Phacops (Cryphops)","Emmrich 1844","Richter and Richter 1926","cryptophthalmus",NA,NA,NA,"Cronier 1999",TRUE,NA,NA,NA,"holaspis","Sessacker","Germany",50.724781,8.343219,"Dillenburg",NA,"Bunte Tonschiefer Formation","Famennian",NA,"Cronier 1999",NA,"carbonate","Munoz DF","Serra F",NA
"131","Pragian - Emsian","to.inc.emsian","UA_4117","Primaspis","Primaspis mackenziensis",NA,NA,"Chatterton and Perry 1983","Richter and Richter 1917",NA,NA,NA,NA,"Chatterton and Perry 1983",TRUE,NA,TRUE,TRUE,"holaspis","Avalanche Lake One","Canada",64.0004317271039,-128.00012871427,"Mackenzie Mountains",NA,"Delorme Formation","Wenlock",NA,"Chatterton and Perry 1983",NA,NA,"Serra F","Serra F",NA
"132","Emsian","to.inc.emsian","UA_4771_(AV3_62)","Ceratocephala","Ceratocephala avalanchensis",NA,NA,"Chatterton and Perry 1983","Warder 1838",NA,NA,NA,NA,"Chatterton and Perry 1983",TRUE,NA,TRUE,TRUE,"holaspis","Avalanche Lake three","Canada",64.0004317271039,-128.00012871427,"Mackenzie Mountains",NA,"Delorme Formation","Wenlock",NA,"Chatterton and Perry 1983",NA,NA,"Serra F","Serra F",NA
"133",NA,"x","UA_6843","Reedops","Reedops bronni",NA,"Phacops","Barrande 1846","Richter and Richter 1925","bronni",NA,NA,NA,"McKellar and Chatterton 2009",TRUE,NA,NA,TRUE,"holaspis","Issoumour","Morocco",31.09083333,4.876666667,NA,NA,"Ihandar","Pragian",NA,"McKellar and Chatterton 2009","Ma'der","carbonate","Munoz DF","Serra F",NA
"134",NA,"x","UA_6935","Pedinopariops","Pedinopariops vagabundus",NA,"Pedinopariops","Struve 1990","Struve 1972","vagabundus","Hypsipariops",NA,NA,"McKellar and Chatterton 2009",TRUE,NA,NA,TRUE,"holaspis","Aferdou de Mrakib","Morocco",30.751775,-4.698545,"Ouarzazate",NA,"Bou Dib Formation","Givetian",NA,"McKellar and Chatterton 2009","Ma'der","carbonate","Munoz DF","Serra F",NA
"135",NA,"x","UA13256","Timsaloproetus","Timsaloproetus haasi",NA,"Cornuproetus","Alberti 1971","Gibb and Chatterton 2007",NA,NA,NA,NA,"Gibb and Chatterton 2009",TRUE,NA,NA,TRUE,"holaspis","Tazoulait-bou Dib","Morocco",31.0927137816298,-4.86982492954927,"Draa-Tafilalet",NA,"El Otfal Formation","Eifelian",NA,"Gibb and Chatterton 2007",NA,"carbonate","Balseiro D","Serra F",NA
"136",NA,"x","UA13381","Parahomalonotus","Parahomalonotus calvus",NA,NA,"Chatterton et al 2006","Reed 1918",NA,NA,NA,NA,"Chatterton et al 2006",TRUE,NA,NA,TRUE,"holaspis","Jbel Gara el Zguilma","Morocco",29.7144458506943,-6.691529014,"Souss-Masa","Tata Province","Timrhanrhart Formation","Emsian",NA,"Chatterton et al 2006",NA,"carbonate","Balseiro D","Serra F",NA
"137",NA,"x","UA13384","Diademaproetus","Diademaproetus praecursor",NA,"Cornuproetus","Alberti 1969","Alberti 1964","holzapfeli",NA,NA,NA,"Chatterton et al 2006",TRUE,NA,NA,TRUE,"holaspis","Jbel Gara el Zguilma","Morocco",29.7144458506943,-6.691529014,"Souss-Masa","Tata Province","Timrhanrhart Formation","Emsian",NA,"Chatterton et al 2006",NA,"carbonate","Balseiro D","Serra F",NA
"138",NA,"x","UA13394","Tropidocoryphe","Tropidocoryphe amuri",NA,NA,"Chatterton et at 2006","Novak 1890",NA,NA,NA,NA,"Chatterton et at 2006",TRUE,NA,NA,TRUE,"holaspis","Jbel Gara el Zguilma","Morocco",29.7144458506943,-6.691529014,"Souss-Masa","Tata Province","Timrhanrhart Formation","Emsian",NA,"Chatterton et al 2006",NA,"carbonate","Balseiro D","Serra F",NA
"139",NA,"x","UA13411","Scabriscutellum","Scabriscutellum hammadi",NA,NA,"Chatterton et al 2006","Richter and Richter 1956",NA,NA,NA,NA,"Chatterton et al 2006",TRUE,NA,NA,TRUE,"holaspis","Jbel Gara el Zguilma","Morocco",29.7144458506943,-6.69152901417345,"Souss-Masa","Tata Province","Timrhanrhart Formation","Emsian",NA,"Chatterton et al 2006",NA,"carbonate","Balseiro D","Serra F",NA
"140",NA,"x","UA13428","Koneprusia","Koneprusia dahmani",NA,NA,"Chatterton et al 2006","Prantl and Pribyl 1949",NA,NA,NA,NA,"Chatterton et al 2006",TRUE,NA,TRUE,TRUE,"holaspis","Zguilma","Morocco",30.0803456213121,-6.8810464811137,NA,NA,"Timrhanrhart Formation","Emsian",NA,"Chatterton et al 2006",NA,NA,"Serra F","Serra F",NA
"142",NA,"x","USNM_PAL_117876","Crassiproetus","Crassiproetus traversensis",NA,"Proetus (Crassiproetus)","Stumm 1953","Stumm 1953",NA,NA,NA,NA,"Stumm 1953",TRUE,NA,NA,TRUE,"holaspis","Charlevoix","United States",45.318574,-85.26121,"Michigan","Charlevoix","Gravel Point Formation","Givetian",NA,"Mohan 2013","Michigan Basin","carbonate","Balseiro D","Serra F",NA
"143","Lochkovian - Eifelian","to.inc.lochkovian","USTM_RF_95","Harpes","Harpes neogracillis",NA,NA,"Richter and Richter 1924","Goldfuss 1839",NA,NA,NA,NA,"Feist and Schindler 1994",TRUE,NA,NA,TRUE,"holaspis","Causses et Veyran","France",43.4755880452318,30.8604680372907,NA,NA,"Upper KW Horizon","Wenlock",NA,"Ziegler and Sandberg 1990",NA,NA,"Serra F","Serra F",NA
"144",NA,"x","WAM_07.273","Babinops","Babinops minor",NA,"Babinops","Feist et al 2009","Feist and Becker 1997","minor",NA,NA,NA,"Feist et al 2009",TRUE,NA,NA,TRUE,"holaspis","South Lawford Range","Australia",-18.733089,126.08416,"Western Australia","Derby-West Kimberley","Virgin Hills Formation","Famennian",NA,"Feist et al 2009","Canning Basin","carbonate","Munoz DF","Serra F",NA
"145",NA,"x","WAM_07.286","Acuticryphops","Acuticryphops acuticeps",NA,"Phacops","Kayser 1889","Crônier and Feist 2000","acuticeps",NA,NA,NA,"Feist et al 2009",TRUE,NA,NA,TRUE,"holaspis","South Lawford Range","Australia",-18.733089,126.08416,"Western Australia","Derby-West Kimberley","Virgin Hills Formation","Frasnian",NA,"Feist et al 2009","Canning Basin","carbonate","Munoz DF","Serra F",NA
"146","Blind (LM 8, 9, 14 not present)","lm.miss","WAM_91.316","Pteroparia","Pteroparia extrema",NA,NA,"Feist and McNamara 2013","Richter 1913",NA,NA,NA,NA,"Feist and McNamara 2013",TRUE,NA,NA,NA,"holaspis","McWhae Ridge","Australia",-18.3538409824795,125.797107392737,"West Australia","Kimberley region","Vigin Hills Formation","Frasnian",NA,"Feist et al 2009","Canning basin","carbonate","Balseiro D","Serra F",NA
"149",NA,"x","AMNH_29104","Bouleia","Bouleia dagincourti",NA,"Phacops","Ulrich 1892","Kozlowski 1923","dagincourti",NA,NA,NA,"Eldregde 1972",TRUE,NA,NA,TRUE,"holaspis","Padilla","Bolivia",-19.3102953231245,-64.3071608512096,NA,NA,NA,"Pragian","Emsian","Eldregde 1972",NA,NA,NA,NA,NA
"150",NA,"x","AMNH_29248","Trypaulites","Trypaulites calypso",NA,"Dalmania","Hall 1861","Delo 1935","calypso",NA,NA,NA,"Lesperance 1975",TRUE,NA,NA,TRUE,"holaspis","Devonian Chert","United States",38.3113230411076,-85.7302487287415,"Indiana","Jefferson",NA,"Lower Devonian","Middle Devonian","Lesperance 1975",NA,NA,NA,NA,NA
"151",NA,"x","AMNH_44818","Kasachstania","Kasachstania gerardoi",NA,"Dalmanites","Edgecombe and Ramsköld 1994","Maksimova 1972","cf. sudamericanus",NA,NA,NA,"Edgecombe and Ramsköld 1994",TRUE,NA,NA,TRUE,"holaspis","Cochabamba Department","Bolivia",-17.3874097635089,-66.1734992418065,NA,NA,"Catavi Formation","Lochkovian",NA,"Edgecombe and Ramsköld 1994",NA,NA,NA,NA,NA
"152",NA,"x","BMS_E5433","Basidechenella","Basidechenella rowi",NA,"Calymene","Green 1838","Richter 1912","rowi",NA,NA,NA,"Lieberman 1994",TRUE,NA,NA,TRUE,"holaspis","East Bethany","United States",42.9325689214387,-78.1013154676705,"New York",NA,"Ludlowville Formation","Emsian","Givetian",NA,"Appalachian Basin",NA,NA,NA,NA
"153",NA,"x","CEGH-UNC_24318","Dalmanitoides","Dalmanitoides drevermanni",NA,"Dalmanites","Thomas 1906","Delo 1935","drevermanni",NA,NA,NA,"Rustan and Vaccari 2012",TRUE,NA,NA,TRUE,"holaspis","Cerro La Chilca","Argentina",-30.5834063976967,-68.8494421429035,"Prov San Juan",NA,"Talacasto Formation","Emsian",NA,"Rustán and Vaccari 2012",NA,NA,NA,NA,NA
"154",NA,"x","GSC_25927","Synphoria","Synphoria dolbeli",NA,"Dalmanites","Clarke 1907","Clarke 1900","dolbeli",NA,NA,NA,"Lesperance and Bourque 1971",TRUE,NA,NA,TRUE,"holaspis","Hymans Store","Canada",46.7422644600242,-71.1918830695246,"Quebec",NA,NA,"Lower Devonian","Middle Devonian","Lesperance and Bourque 1971",NA,NA,NA,NA,NA
"156",NA,"x","GSC_43605","Fuscinipyge","Fuscinipyge yolkini",NA,"Fuscinipyge","Ormiston 1972","Ormiston 1972","yolkini",NA,NA,NA,"Ormiston 1976",TRUE,NA,NA,TRUE,"holaspis","Mackenzie Mountains","Canada",65.338,-129.966,NA,NA,"Hume Formation","Eifelian",NA,NA,"Mackenzie Basin",NA,NA,NA,NA
"158",NA,"x","IRSNB_7782A","Scutellum","Scutellum decipulum",NA,NA,"Van Viersen and Prescher 2011","Pusch 1833",NA,NA,NA,NA,"Van Viersen and Prescher 2011",TRUE,NA,NA,TRUE,"holaspis","Arche Quarry","Belgium",50.666,3.616,"Wallone","Hradec KrAlovE","Moulin Lianaux Formation","Frasnian",NA,"Van Viersen and Prescher 2011","Belgium",NA,NA,NA,NA
"159",NA,"x","IRSNB_a12575","Gerastos","Gerastos prox lessensis",NA,"Gerastos","Van Viersen and Prescher 2008","Richter and Richter 1956","prox",NA,NA,NA,"Van Viersen and Prescher 2008",TRUE,NA,NA,TRUE,"holaspis","Resteigne quarry","Belgium",50.0781300548931,5.15291233012305,NA,NA,"Hanonet Formation","Eifelian",NA,NA,NA,NA,NA,NA,NA
"160",NA,"x","IRSNB_a12604","Dechenella","Dechenella daumeriesi",NA,"Dechenella","Van Viersen and Prescher 2008","Kayser 1880","sp.",NA,NA,NA,"Van Viersen and Prescher 2008",TRUE,NA,NA,TRUE,"holaspis","Resteigne quarry","Belgium",50.0781300548931,5.15291233012305,NA,NA,"Hanonet Formation","Eifelian",NA,NA,NA,NA,NA,NA,NA
"161",NA,"x","MCZ_172821","Odontochile","Odontochile hausmanni",NA,"Asaphus","Brongniart 1822","Hawle and Corda 1847","hausmanni",NA,NA,NA,"Budil et. al 2007",TRUE,NA,NA,TRUE,"holaspis",NA,"Czech Republic",NA,NA,NA,NA,"Praha Formation","Pragian",NA,"Budil et al 2007",NA,NA,NA,NA,NA
"162",NA,"x","MCZ7623-1","Burmeisteria","Burmeisteria accraensis",NA,"Trimerus (Dipleura)","Saul 1967","Salter 1865","dekayi","Digonus",NA,NA,"Saul 1967",TRUE,NA,NA,TRUE,"holaspis","Accra","Ghana",5.58436610835575,-0.178013602904375,"Big Accra","Metropolitan Accra","Accraian Series","Lower Devonian","Middle Devonian","Saul 1967",NA,"siliciclastic",NA,NA,NA
"163",NA,"x","MMB107","Belenopyge","Belenopyge estevei",NA,"Acanthopyge (Lobopyge)","Corbacho and Kier 2013","Hawle and Corda 1847","sp.",NA,NA,NA,"Corbacho and Kier 2013",TRUE,NA,NA,TRUE,"holaspis","Jebel Oufatene","Morocco",31.15,-4.916,NA,NA,"Ihandar Formation","Pragian",NA,NA,"Mader basin","carbonate",NA,NA,NA
"166",NA,"x","MS_7390","Orbitoproetus","Orbitoproetus fornicatus",NA,"Proetus","Pribyl 1971","Pillet 1969","fornicatus",NA,NA,NA,"Snajdr 1980",TRUE,NA,NA,TRUE,"holaspis","Koneprusy","Czech Republic",49.266,14.065,"Central Bohemia","Beroun","Acanthopyge Limestone","Eifelian",NA,"Snajdr 1980","Barrandian area","carbonate",NA,NA,NA
"167",NA,"x","NHM_IT_28323","Paralejurus","Paralejurus brongniarti",NA,NA,"Barrande 1846","Hawle and Corda 1847",NA,NA,NA,NA,"Feist and Lerosey-Aubril 2010",TRUE,NA,TRUE,TRUE,"holaspis","El Achane","Morocco",32.2528056904625,-6.94366480654293,"Beni Melal Jenifra",NA,NA,"Pragian",NA,"Feist Lerosey-Aubril 2010","Morocco",NA,NA,NA,NA
"168",NA,"x","NHM_It_28960","Podoliproetus","Podoliproetus sinespina",NA,"Podoliproetus","Johnson and Fortey 2012","Snajdr 1980","sinespina",NA,NA,NA,"Johnson and Fortey 2012",TRUE,NA,NA,TRUE,"holaspis","Erfoud","Morocco",31.4516445225365,-4.25870542867204,"Draa Tafilalet",NA,"Ihandar Formation","Pragian",NA,"Bultynck and Walliser 2000",NA,"carbonate",NA,NA,NA
"169",NA,"x","NHMM_2011_003","Ceratarges","Ceratarges aries",NA,"Ceratarges","Van Viersen and Prescher 2011","Garich 1901","sp. n.",NA,NA,NA,"Van Viersen and Prescher 2011",TRUE,NA,NA,TRUE,"holaspis","Zireg","Morocco",30.611,-4.539,NA,NA,"El Otfal Formation","Eifelian",NA,NA,"Maider Basin","carbonate",NA,NA,NA
"170",NA,"x","NMW2005-32G-132","Trimerus","Trimerus kinglakensis",NA,"Trimerus","Gill 1949","Green 1832","kinglakensis","Edgillia",NA,"aff","Pour et al 2019",TRUE,NA,NA,TRUE,"holaspis","Lake Balkhash","Kazakhstan",46.5445450720301,73.7929168970474,NA,NA,"Shakshagaily","Lower Devonian",NA,"Pour et al 2019",NA,"siliciclastic",NA,NA,NA
"171",NA,"x","NYSM_13376-1","Synphoroides","Synphoroides dolphi",NA,"Dalmanites","Clarke 1893","Delo 1940","dolphi",NA,NA,NA,"Delo 1940",TRUE,NA,NA,TRUE,"holaspis","Port Jervis","United States",41.3764342804558,-74.7011755729689,"New York",NA,"Helderberg Formation","Devonian",NA,"Delo 1940",NA,NA,NA,NA,NA
"173",NA,"x","NYSM_31330","Odontocephalus","Odontocephalus selenourus",NA,"Asaphus","Eaton 1832","Conrad 1840","selenourus",NA,NA,NA,"Stumm 1954",TRUE,NA,NA,TRUE,"holaspis","Lower Onondaga limestone","United States",43.021621493644,-76.2574365946621,"New York",NA,"Bois Blanc Formation","Middle Devonian",NA,"Stumm 1954",NA,NA,NA,NA,NA
"174",NA,"x","NYSM_9848","Huntoniatonia","Huntoniatonia nasuta",NA,"Asaphus","Conrad 1841","Jell and Adrain 2003","nasutus",NA,NA,NA,"Delo 1940",TRUE,NA,NA,TRUE,"holaspis","Schoharie","United States",42.6669019712149,-74.3147691424925,"New York",NA,NA,"Lower Devonian",NA,"Delo 1940",NA,NA,NA,NA,NA
"175",NA,"x","SBNM_663-66","Voigtaspis","Voigtaspis veleslavini",NA,"Cornuproetus (Cornuproetus)","Pribyl 1969","Alberti 1967","veleslavini",NA,NA,NA,"Snajdr 1980",TRUE,NA,NA,TRUE,"holaspis","Koneprusy Limestone","Morocco",33.5035018372434,-7.30258795334155,NA,NA,NA,"Pragian",NA,"Snajdr 1980","Bohemia",NA,NA,NA,NA
"176",NA,"x","SBNM_786-66","Denemarkia","Denemarkia frontalis",NA,"Proetus","Hawle and Corda 1847","Pribyl 1946","frontalis",NA,NA,NA,"Snajdr 1980",TRUE,NA,NA,TRUE,"holaspis","Koneprusy Limestone","Morocco",33.5035018372434,-7.30258795334155,NA,NA,NA,"Pragian",NA,"Snajdr 1980","Bohemia",NA,NA,NA,NA
"178",NA,"x","SBNM_IT_176","Myoproetus","Myoproetus myops",NA,"Proetus","Barrande 1846","Snajdr 1976","myops",NA,NA,NA,"Snajdr 1980",TRUE,NA,NA,TRUE,"holaspis","Koneprusy","Czech Republic",49.266,14.065,"Central Bohemia","Beroun","Acanthopyge Limestone","Emsian",NA,"Snajdr 1980","Barrandian area","carbonate",NA,NA,NA
"179",NA,"x","SBNM_IT_177","Unguliproetus","Unguliproetus unguloides",NA,"Proetus","Barrande 1846","Erben 1951","unguloides",NA,NA,NA,"Snajdr 1980",TRUE,NA,NA,TRUE,"holaspis","Menany","Czech Republic",49.91,14.117,"Central Bohemia",NA,"Suchomasty Limestone","Emsian",NA,"Snajdr 1980","Barrandian area","carbonate",NA,NA,NA
"180","Lochkovian - Pragian","to.inc.lochkovian","SBNM_IT_240","Decoroproetus","Decoroproetus coderus",NA,"Proetus","Snajdr 1980","Pribyl 1946","decorus [partim.]",NA,NA,NA,"Snajdr 1980",TRUE,NA,TRUE,NA,"holaspis","Lodenice","Czech Republic",49.266,14.065,"Central Bohemia","Beroun","Liten Formation","Wenlock",NA,"Snajdr 1980","Barrandian area","carbonate",NA,NA,NA
"182",NA,"x","SBNM-CF_1019","Centriproetus","Centriproetus concentricus",NA,"Proetus (Decoroproetus)","Pribyl 1949","Snajdr 1977","concentricus",NA,NA,NA,"Snajdr 1980",TRUE,NA,NA,TRUE,"holaspis","Prokop Limestone","Morocco",33.5035018372434,-7.30258795334155,NA,NA,NA,"Lochkovian",NA,"Snajdr 1980",NA,NA,NA,NA,NA
"183",NA,"x","SBNM-IT_212","Xiphogonium","Xiphogonium loveni",NA,"Proetus","Barrande 1846","Hawle and Corda 1847","lovenii",NA,NA,NA,"Snajdr 1980",TRUE,NA,NA,TRUE,"holaspis","Zlichov Limestone","Morocco",33.5035018372434,-7.30258795334155,"Hostom",NA,NA,"Eifelian",NA,"Snajdr 1980",NA,NA,NA,NA,NA
"184","Lochkovian","to.inc.lochkovian","SBNM-IT_257","Prionopeltis","Prionopeltis striata",NA,"Phaeton","Barrande 1846","Hawle and Corda 1847","striatus",NA,NA,NA,"Snajdr 1980",TRUE,NA,NA,TRUE,"holaspis","Dlouha hora","Czech Republic",50.7900453712045,14.9235883462869,"Prague",NA,"Pridoli Formation","Pridoli",NA,"Snajdr 1980",NA,NA,NA,NA,NA
"187",NA,"x","SMF_79804","Acastoides","Acastoides paeckelmanni",NA,"Acaste (Acastoides)","Richter and Richter 1939","Delo 1935","paeckelmanni",NA,"?",NA,"Basse 2003",TRUE,NA,NA,TRUE,"holaspis","Pendik","Turkey",40.8929660525361,29.2791997054736,NA,NA,NA,"Emsian",NA,"Basse 2003",NA,NA,NA,NA,NA
"188",NA,"x","SMF_88192","Kettneraspis","Kettneraspis elliptica",NA,NA,"Burmeister 1843","Prantl and Pribyl 1949",NA,NA,NA,NA,"Van Viersen and Heising 2015",TRUE,NA,NA,TRUE,"holaspis","Gees","Germany",50.220476392588,6.69704978295352,NA,NA,"Ahrdorf Formation","Eifelian",NA,NA,NA,NA,NA,NA,NA
"189",NA,"x","SMF39104","Digonus","Digonus ornatus ornatus",NA,"Homalonotus","Koch 1883","Gurich 1909","ornatus",NA,NA,NA,"Wenndorf 1990",TRUE,NA,NA,TRUE,"holaspis","Oberstadtfeld","Germany",50.1789577288092,6.7531003599793,NA,NA,"Unterems Gladbachschisten","Lower Devonian",NA,"Wenndorf 1990",NA,"siliciclastic",NA,NA,NA
"190",NA,"x","UA_14327","Kolihapeltis","Kolihapeltis chlupaci",NA,NA,"Snajdr 1960","Prantl and Pribyl 1947",NA,NA,NA,NA,"Feist and Chatterton 2015",TRUE,NA,TRUE,TRUE,"holaspis","Hamar Laghdad III","Morocco",31.379,-4.064,"Draa Tafilalet","ErrachidAa","Kess Kess Formation","Pragian",NA,"Feist Chatterton 2011","Morocco",NA,NA,NA,NA
"191",NA,"x","Ulg_2011_11_16","Ohleum","Ohleum magreani",NA,"Ohleum","Taghon et al 2012","Basse 1998","cf. eurydice",NA,NA,NA,"Taghon et al 2012",TRUE,NA,NA,TRUE,"holaspis","Couvin","Belgium",50.0507371549042,4.49756761846332,NA,NA,"Jemelle Formation","Eifelian",NA,NA,"Namur Dinant Basin","carbonate",NA,NA,NA
"192",NA,"x","UMC_IP333","Cyrtosymbole","Cyrtosymbole escoti",NA,"Dechenella","Von Koenen 1886","Richter 1912","escoti",NA,NA,NA,"Feist and Lerosey-Aubril 2005",TRUE,NA,NA,TRUE,"early holaspis","Cabriires village","France",43.8865359713674,5.15024931734429,NA,"Vaucluse","Griotte Limestone Formation","Famennian",NA,NA,"Montagne Noire","carbonate",NA,NA,NA
"193",NA,"x","UMMP_31317","Anchiopsis","Anchiopsis anchiops",NA,"Calymene","Green 1832","Delo 1935","anchiops",NA,NA,NA,"Stumm 1954",TRUE,NA,NA,TRUE,"holaspis","Southwest Ontario","United States",34.8937467742784,-118.553081452521,"Ontario",NA,"Bois Blanc Formation","Middle Devonian",NA,"Stumm 1954",NA,NA,NA,NA,NA
"194",NA,"x","USNMPAL_373954","Francovichia","Francovichia branisi",NA,"Francovichia","Wolfart 1968","Branisa and Vanek 1973","francovichi",NA,NA,NA,"Branisa 1965",TRUE,NA,NA,TRUE,"holaspis","Limabamba","Bolivia",-19.5333619622509,-64.3666662948223,"Prov Tomina","Depto. Chuquisaca",NA,"Emsian",NA,"Branisa 1965",NA,NA,NA,NA,NA
"195",NA,"x","WAM_07301","Palpebralia","Palpebralia initialis",NA,"Palpebralia","Feist and McNamara 2013","Richter and Richter 1927","initialis",NA,NA,NA,"Feist and McNamara 2013",TRUE,NA,NA,TRUE,"holaspis","Windy Knolls","Australia",-31.0749985857783,116.180387602821,"Western Australia",NA,"Virgin Hills Formation","Frasnian",NA,"Feist and McNamara 2013","Canning basin","carbonate",NA,NA,NA
"197",NA,"lm.miss","WAM_1140","Rudybole","Rudybole adorfensis",NA,"Drevermania","Richter 1912","Feist and McNamara 2013","adorfensis",NA,NA,NA,"Feist and McNamara 2013",TRUE,NA,NA,TRUE,"holaspis","Horse Spring","Australia",-16.3583289493778,130.965675572865,"Western Australia",NA,"Virgin Hills Formation","Frasnian",NA,"Feist and McNamara 2013","Canning basin",NA,NA,NA,NA
"199","Lochkovian - Famennian","to.inc.lochkovian","YPM_33805","Proetus","Proetus latifrons",NA,"Forbesia","McCoy 1846","Steininger 1831","latifrons",NA,NA,NA,"Lieberman 1994",TRUE,NA,NA,TRUE,"holaspis","Dudley","England",52.5160182594989,-2.09428116523503,NA,"West Midlands","Coalbrookdale Formation","Wenlock",NA,"Owens 1973",NA,NA,NA,NA,NA
"201",NA,"x","WAM-07.286","Acuticryphops","Acuticryphops acuticeps",NA,NA,NA,NA,NA,NA,NA,NA,"Feist et al 2009",TRUE,TRUE,TRUE,TRUE,"holaspis",NA,NA,-18.721917,126.016389,NA,NA,NA,"Frasnian",NA,NA,NA,NA,"VB, CM","VB","03/01/2023"
"202",NA,"x","UM-IP-894","Acutiphacops","Acutiphacops medius",NA,NA,NA,NA,NA,NA,NA,NA,"Feist and Klapper 2022",TRUE,TRUE,TRUE,TRUE,"holaspis",NA,NA,43.556786,3.355572,NA,NA,NA,"Frasnian",NA,NA,NA,NA,"VB, CM","VB","03/01/2023"
"204",NA,"x","NHMM-2016-007","Adrisiops","Adrisiops weugi",NA,NA,NA,NA,NA,NA,NA,NA,"VanViersen et al 2017b",TRUE,TRUE,TRUE,TRUE,"holaspis",NA,NA,31.012406,-5.067447,NA,NA,NA,"Emsian",NA,NA,NA,NA,"VB, CM","VB","03/01/2023"
"205",NA,"lm.miss","Alberti_1983-7.87","Afrops","Afrops larvifer",NA,NA,NA,NA,NA,NA,NA,NA,"Alberti 1983",TRUE,TRUE,NA,NA,"holaspis",NA,NA,31.924133,-1.840125,NA,NA,NA,"Pragian",NA,NA,NA,NA,"VB, CM","VB","03/01/2023"
"206",NA,"x","Maksimova-1978-2.1b","Ainasuella","Ainasuella ainasuensis",NA,NA,NA,NA,NA,NA,NA,NA,"Maksimova 1978",TRUE,TRUE,TRUE,TRUE,"holaspis",NA,NA,NA,NA,NA,NA,NA,"Lochkovian",NA,NA,NA,NA,"VB, CM","VB","03/01/2023"
"207","(Valentine => no information)","no.age","Maksimova-1978-2.3b","Altaesajania","Altaesajania primitiva",NA,NA,NA,NA,NA,NA,NA,NA,"Maksimova 1978",TRUE,TRUE,TRUE,NA,"holaspis",NA,NA,NA,NA,NA,NA,NA,NA,NA,NA,NA,NA,"VB, CM","VB","03/01/2023"
"208",NA,"no.devo","NM-9324","Ananaspis","Ananaspis fecunda fecunda",NA,NA,NA,NA,NA,NA,NA,NA,"Chlupac 1977",TRUE,TRUE,TRUE,TRUE,"holaspis",NA,NA,NA,NA,NA,NA,NA,"Ludlow",NA,NA,NA,NA,"VB, CM","VB","03/01/2023"
"209",NA,"lm.miss","Maksimova-1968-20.2","Angulophacops","Angulophacops angulatus",NA,NA,NA,NA,NA,NA,NA,NA,"Maksimova 1968",TRUE,TRUE,TRUE,NA,"holaspis",NA,NA,NA,NA,NA,NA,NA,"Emsian",NA,NA,NA,NA,"VB, CM","VB","03/01/2023"
"210",NA,"x","SMF-24603","Arduennops","Arduennops michelsi",NA,NA,NA,NA,NA,NA,NA,NA,"Franke 2010",TRUE,TRUE,TRUE,TRUE,"holaspis",NA,NA,49.964306,5.928778,NA,NA,NA,"Emsian",NA,NA,NA,NA,"VB, CM","VB","03/01/2023"
"212",NA,"x","UA-6884","Austerops","Austerops kermiti",NA,NA,NA,NA,NA,NA,NA,NA,"McKellar and Chatterton 2009",TRUE,TRUE,TRUE,TRUE,"holaspis",NA,NA,30.83925,-4.882972,NA,NA,NA,"Eifelian",NA,NA,NA,NA,"VB, CM","VB","03/01/2023"
"213",NA,"x","WAM-07.273","Babinops","Babinops minor",NA,NA,NA,NA,NA,NA,NA,NA,"Feist et al 2009",TRUE,TRUE,TRUE,TRUE,"holaspis",NA,NA,NA,NA,NA,NA,NA,"Famennian",NA,NA,NA,NA,"VB, CM","VB","03/01/2023"
"214",NA,"x","UA-6897","Boeckops","Boeckops stelcki",NA,NA,NA,NA,NA,NA,NA,NA,"McKellar and Chatterton 2009",TRUE,TRUE,TRUE,TRUE,"holaspis",NA,NA,30.796667,-4.905639,NA,NA,NA,"Emsian",NA,NA,NA,NA,"VB, CM","VB","03/01/2023"
"215",NA,"x","Becker-etal_2017-4d","Burtonops","Burtonops cristatus",NA,NA,NA,NA,NA,NA,NA,NA,"Becker et al 2017",TRUE,TRUE,NA,TRUE,"holaspis",NA,NA,41.176972,-74.296833,NA,NA,NA,"Emsian",NA,NA,NA,NA,"VB, CM","VB","03/01/2023"
"216",NA,"x","UM-IP-712","Chlupacops","Chlupacops laticeps",NA,NA,NA,NA,NA,NA,NA,NA,"Feist et al 2016",TRUE,TRUE,TRUE,TRUE,"holaspis",NA,NA,29.958778,-2.102167,NA,NA,NA,"Frasnian",NA,NA,NA,NA,"VB, CM","VB","03/01/2023"
"218",NA,"x","UM-IP-862","Cronierella","Cronierella gallica",NA,NA,NA,NA,NA,NA,NA,NA,"Feist and Klapper 2022",TRUE,TRUE,TRUE,TRUE,"holaspis",NA,NA,43.556786,3.355572,NA,NA,NA,"Givetian",NA,NA,NA,NA,"VB, CM","VB","03/01/2023"
"219",NA,"x","SMF-57513","Cryphops","Cryphops cryptophthalmus",NA,NA,NA,NA,NA,NA,NA,NA,"Crônier and Feist 2000",TRUE,TRUE,NA,TRUE,"holaspis",NA,NA,50.742806,8.362528,NA,NA,NA,"Famennian",NA,NA,NA,NA,"VB, CM","VB","03/01/2023"
"220","Lochkovian - Pragian","to.inc.lochkovian","Ich-3441","Denckmannites","Denckmannites volborthi",NA,NA,NA,NA,NA,NA,NA,NA,"Chlupac 1977",TRUE,TRUE,TRUE,TRUE,"holaspis",NA,NA,50.002359,14.354408,NA,NA,NA,"Ludlow",NA,NA,NA,NA,"VB, CM","VB","03/01/2023"
"222",NA,"x","Brauckmann_1986-6.5a","Dienstina","Dienstina diensti",NA,NA,NA,NA,NA,NA,NA,NA,"Brauckmann and Brauckmann 1986",TRUE,TRUE,TRUE,TRUE,"holaspis",NA,NA,NA,NA,NA,NA,NA,"Famennian",NA,NA,NA,NA,"VB, CM","VB","03/01/2023"
"223",NA,"x","SMF-49340","Drotops","Drotops megalomanicus",NA,NA,NA,NA,NA,NA,NA,NA,"Struve 1995",TRUE,TRUE,TRUE,TRUE,"holaspis",NA,NA,31.1125,-5.168333,NA,NA,NA,"Givetian",NA,NA,NA,NA,"VB, CM","VB","03/01/2023"
"224",NA,"lm.miss","Basse-Muller_2000-3.19","Ductina","Ductina ductifrons",NA,NA,NA,NA,NA,NA,NA,NA,"Basse and Müller 2000",TRUE,TRUE,TRUE,NA,"holaspis",NA,NA,NA,NA,NA,NA,NA,"Famennian",NA,NA,NA,NA,"VB, CM","VB","03/01/2023"
"225",NA,"x","CEGH-UNC_26130","Echidnops","Echidnops taphomimus",NA,NA,NA,NA,NA,NA,NA,NA,"Rustan and Balseiro 2016",TRUE,TRUE,TRUE,TRUE,"holaspis",NA,NA,-30.304694,-68.948,NA,NA,NA,"Lochkovian",NA,NA,NA,NA,"VB, CM","VB","03/01/2023"
"226","(Valentine => Upper Silurian to Emsian)","to.inc.emsian","Tr-229","Echinophacops","Echinophacops mirabilis",NA,NA,NA,NA,NA,NA,NA,NA,"Zhou 1983",TRUE,TRUE,TRUE,TRUE,"holaspis",NA,NA,NA,NA,NA,NA,NA,NA,NA,NA,NA,NA,"VB, CM","VB","03/01/2023"
"227",NA,"x","AMNH_28896","Eldredgeops","Eldredgeops rana milleri",NA,NA,NA,NA,NA,NA,NA,NA,"Burton and Eldredge 1974",TRUE,TRUE,TRUE,TRUE,"holaspis",NA,NA,41.679167,-83.745972,NA,NA,NA,"Eifelian",NA,NA,NA,NA,"VB, CM","VB","03/01/2023"
"228",NA,"x","NHM-It-19284","Eocryphops","Eocryphops albertii",NA,NA,NA,NA,NA,NA,NA,NA,"Holloway 2005",TRUE,TRUE,TRUE,TRUE,"holaspis",NA,NA,31.088956,-4.883503,NA,NA,NA,"Eifelian",NA,NA,NA,NA,"VB, CM","VB","03/01/2023"
"230",NA,"x","MUST-RCSR-TRI-0001","Feistops","Feistops mongoliensis",NA,NA,NA,NA,NA,NA,NA,NA,"Crônier et al 2020",TRUE,TRUE,TRUE,TRUE,"holaspis",NA,NA,NA,NA,NA,NA,NA,"Famennian",NA,NA,NA,NA,"VB, CM","VB","03/01/2023"
"232",NA,"x","UM-IP-948","Girardina","Girardina konradbartzschi",NA,NA,NA,NA,NA,NA,NA,NA,"Feist and Klapper 2022",TRUE,TRUE,TRUE,TRUE,"holaspis",NA,NA,50.628028,11.847628,NA,NA,NA,"Frasnian",NA,NA,NA,NA,"VB, CM","VB","03/01/2023"
"233",NA,"x","NHMM_2016-055","Hottonops","Hottonops daumeriesi",NA,NA,NA,NA,NA,NA,NA,NA,"VanViersen et al 2017a",TRUE,NA,NA,TRUE,"holaspis",NA,NA,50.256,5.467083,NA,NA,NA,"Eifelian",NA,NA,NA,NA,"VB, CM","VB","03/01/2023"
"234",NA,"x","WAM-07.266","Houseops","Houseops canningensis",NA,NA,NA,NA,NA,NA,NA,NA,"Feist et al 2009",TRUE,TRUE,TRUE,TRUE,"holaspis",NA,NA,-18.721917,126.016389,NA,NA,NA,"Famennian",NA,NA,NA,NA,"VB, CM","VB","03/01/2023"
"235",NA,"x","SMF-49402","Hypsipariops","Hypsipariops vagabundus",NA,NA,NA,NA,NA,NA,NA,NA,"Struve 1995",TRUE,TRUE,TRUE,TRUE,"holaspis",NA,NA,31.1125,-5.168333,NA,NA,NA,"Givetian",NA,NA,NA,NA,"VB, CM","VB","03/01/2023"
"236",NA,"lm.miss","SMF-55933","Illaenula","Illaenula struvei",NA,NA,NA,NA,NA,NA,NA,NA,"Basse and Müller 2000",TRUE,TRUE,TRUE,NA,"holaspis",NA,NA,NA,NA,NA,NA,NA,"Eifelian",NA,NA,NA,NA,"VB, CM","VB","03/01/2023"
"238",NA,"x","ANU_35207","Kainops","Kainops microps",NA,"Paciphacops","Chatterton et al 1979","Ramsköld and Werdelin 1991","microps",NA,NA,NA,"Chatterton et al 1979",TRUE,NA,NA,TRUE,"holaspis","Wellington Caves","Australia",-32.621379,148.938024,"New South Wales","Wellington","Garra Formation","Lochkovian","Pragian","Chatterton et al 1979","Lachland basin","carbonate","Munoz DF","Serra F",NA
"240",NA,"x","NM-L-9332","Lochkovella","Lochkovella misera",NA,NA,NA,NA,NA,NA,NA,NA,"Chlupac 1977",TRUE,TRUE,TRUE,TRUE,"holaspis",NA,NA,50.002359,14.354408,NA,NA,NA,"Lochkovian",NA,NA,NA,NA,"VB, CM","VB","03/01/2023"
"241",NA,"x","NHMM_2016-057","Loreleiops","Loreleiops suffeleersi",NA,NA,NA,NA,NA,NA,NA,NA,"VanViersen et al 2017a",TRUE,NA,NA,TRUE,"holaspis",NA,NA,50.265667,5.434833,NA,NA,NA,"Eifelian",NA,NA,NA,NA,"VB, CM","VB","03/01/2023"
"242",NA,"x","IRSBNa13216","Megraneops","Megraneops renateae",NA,NA,NA,NA,NA,NA,NA,NA,"VanViersen and Vanherle 2018",TRUE,TRUE,TRUE,TRUE,"holaspis",NA,NA,NA,NA,NA,NA,NA,"Frasnian",NA,NA,NA,NA,"VB, CM","VB","03/01/2023"
"243",NA,"x","UA-13295","Morocops","Morocops granulops",NA,NA,NA,NA,NA,NA,NA,NA,"Chatterton et al 2006",TRUE,TRUE,TRUE,TRUE,"holaspis",NA,NA,29.710333,-6.708694,NA,NA,NA,"Emsian",NA,NA,NA,NA,"VB, CM","VB","03/01/2023"
"244",NA,"lm.miss","GT-464","Nandanaspis","Nandanaspis laevigatus",NA,NA,NA,NA,NA,NA,NA,NA,"Yin et al 1978",TRUE,TRUE,TRUE,NA,"holaspis",NA,NA,NA,NA,NA,NA,NA,"Eifelian",NA,NA,NA,NA,"VB, CM","VB","03/01/2023"
"245",NA,"???","P307225","Nephranomma","Nephranomma sweeti",NA,NA,NA,NA,NA,NA,NA,NA,"Sandford 2003",TRUE,TRUE,TRUE,TRUE,"holaspis",NA,NA,NA,NA,NA,NA,NA,"Pragian",NA,NA,NA,NA,"VB, CM","VB","03/01/2023"
"246",NA,"lm.miss","SMF-97026","Nephranops","Nephranops incisus",NA,NA,NA,NA,NA,NA,NA,NA,"Feist 2019",TRUE,TRUE,TRUE,NA,"holaspis",NA,NA,NA,NA,NA,NA,NA,"Famennian",NA,NA,NA,NA,"VB, CM","VB","03/01/2023"
"247",NA,"x","IRSBNa12430","Nyterops","Nyterops hollandi",NA,NA,NA,NA,NA,NA,NA,NA,"VanViersen 2007",TRUE,TRUE,TRUE,TRUE,"holaspis",NA,NA,50.089861,5.179056,NA,NA,NA,"Eifelian",NA,NA,NA,NA,"VB, CM","VB","03/01/2023"
"248",NA,"x","UM-IP-906","Occitanella","Occitanella hexagonalis",NA,NA,NA,NA,NA,NA,NA,NA,"Feist and Klapper 2022",TRUE,TRUE,TRUE,TRUE,"holaspis",NA,NA,43.596997,3.354633,NA,NA,NA,"Frasnian",NA,NA,NA,NA,"VB, CM","VB","03/01/2023"
"249",NA,"x","GUGM-1359","Omegops","Omegops tilabadensis",NA,NA,NA,NA,NA,NA,NA,NA,"Pour et al 2018",TRUE,TRUE,TRUE,TRUE,"holaspis",NA,NA,NA,NA,NA,NA,NA,"Famennian",NA,NA,NA,NA,"VB, CM","VB","03/01/2023"
"252","Eifelian - Givetian","to.inc.eifelian","Cronier-etal_2015-3J","Pedinopariops","Pedinopariops insequens",NA,NA,NA,NA,NA,NA,NA,NA,"Crônier et al 2015",TRUE,TRUE,TRUE,TRUE,"holaspis",NA,NA,50.032674,14.35152,NA,NA,NA,"Eifelian",NA,NA,NA,NA,"VB, CM","VB","03/01/2023"
"255",NA,"x","MU-G-Sr.Tr.S7Ph001","Phacops","Phacops ouarouroutensis",NA,NA,NA,NA,NA,NA,NA,NA,"Crônier et al 2018",TRUE,TRUE,TRUE,TRUE,"holaspis",NA,NA,30.073275,-2.231894,NA,NA,NA,"Eifelian",NA,NA,NA,NA,"VB, CM","VB","03/01/2023"
"256",NA,"x","Alberti_1983-8.90","Plagiolaria","Plagiolaria senex",NA,NA,NA,NA,NA,NA,NA,NA,"Alberti 1983",TRUE,TRUE,TRUE,TRUE,"holaspis",NA,NA,31.924133,-1.840125,NA,NA,NA,"Pragian",NA,NA,NA,NA,"VB, CM","VB","03/01/2023"
"257",NA,"x","Sandford-2004-3A","Prokops","Prokops prokopi",NA,NA,NA,NA,NA,NA,NA,NA,"Crônier et al 2015",TRUE,TRUE,TRUE,TRUE,"holaspis",NA,NA,50.025111,14.379655,NA,NA,NA,"Emsian",NA,NA,NA,NA,"VB, CM","VB","03/01/2023"
"258",NA,"lm.miss","SMF-X540d","Pulvinocephalus","Pulvinocephalus steinachensis",NA,NA,NA,NA,NA,NA,NA,NA,"Feist 2019",TRUE,TRUE,TRUE,NA,"holaspis",NA,NA,NA,NA,NA,NA,NA,"Famennian",NA,NA,NA,NA,"VB, CM","VB","03/01/2023"
"259",NA,"x","Feist-etal_2020-4d","Rabienops","Rabienops wedeckindi",NA,NA,NA,NA,NA,NA,NA,NA,"Feist et al 2020",TRUE,TRUE,TRUE,TRUE,"holaspis",NA,NA,NA,NA,NA,NA,NA,"Famennian",NA,NA,NA,NA,"VB, CM","VB","03/01/2023"
"260",NA,"x","UA-6843","Reedops","Reedops bronni",NA,NA,NA,NA,NA,NA,NA,NA,"McKellar and Chatterton 2009",TRUE,TRUE,TRUE,TRUE,"holaspis",NA,NA,30.895122,-4.963267,NA,NA,NA,"Pragian",NA,NA,NA,NA,"VB, CM","VB","03/01/2023"
"261",NA,"x","Tr-240","Rhinophacops","Rhinophacops schizoloma",NA,NA,NA,NA,NA,NA,NA,NA,"Kaneko 1990",TRUE,TRUE,TRUE,TRUE,"holaspis",NA,NA,NA,NA,NA,NA,NA,"Emsian",NA,NA,NA,NA,"VB, CM","VB","03/01/2023"
"262",NA,"x","Maksimova-1978-3.9","Rhinoreedops","Rhinoreedops rhinoceras",NA,NA,NA,NA,NA,NA,NA,NA,"Maksimova 1978",TRUE,TRUE,TRUE,TRUE,"holaspis",NA,NA,NA,NA,NA,NA,NA,"Eifelian",NA,NA,NA,NA,"VB, CM","VB","03/01/2023"
"263",NA,"x","NM-IT-391a","Signatops","Signatops signatus",NA,NA,NA,NA,NA,NA,NA,NA,"Chlupac 1977",TRUE,TRUE,TRUE,TRUE,"holaspis",NA,NA,49.918615,14.070078,NA,NA,NA,"Eifelian",NA,NA,NA,NA,"VB, CM","VB","03/01/2023"
"264",NA,"x","SMF-X564e","Spinicryphops","Spinicryphops lemkei",NA,NA,NA,NA,NA,NA,NA,NA,"Crônier and Feist 2000",TRUE,TRUE,TRUE,TRUE,"holaspis",NA,NA,51.381811,7.852769,NA,NA,NA,"Famennian",NA,NA,NA,NA,"VB, CM","VB","03/01/2023"
"266",NA,"lm.miss","SMF-57520","Struveops","Struveops schlosseri",NA,NA,NA,NA,NA,NA,NA,NA,"Crônier and Feist 2000",TRUE,TRUE,NA,NA,"holaspis",NA,NA,NA,NA,NA,NA,NA,"Famennian",NA,NA,NA,NA,"VB, CM","VB","03/01/2023"
"267",NA,"???","SMF-24417","Struvephacops","Struvephacops werneri",NA,NA,NA,NA,NA,NA,NA,NA,"Struve 1995",TRUE,TRUE,TRUE,TRUE,"holaspis",NA,NA,NA,NA,NA,NA,NA,"Emsian",NA,NA,NA,NA,"VB, CM","VB","03/01/2023"
"269",NA,"x","SMF-24467","Teichertops","Teichertops soetenicus",NA,NA,NA,NA,NA,NA,NA,NA,"Struve 1970",TRUE,TRUE,TRUE,TRUE,"holaspis",NA,NA,NA,NA,NA,NA,NA,"Givetian",NA,NA,NA,NA,"VB, CM","VB","03/01/2023"
"270",NA,"x","Tr-339","Toxophacops","Toxophacops cristata",NA,NA,NA,NA,NA,NA,NA,NA,"Zhou and Campbell 1990",TRUE,TRUE,TRUE,TRUE,"holaspis",NA,NA,NA,NA,NA,NA,NA,"Emsian",NA,NA,NA,NA,"VB, CM","VB","03/01/2023"
"271",NA,"lm.miss","UM-IP-722","Trifoliops","Trifoliops trifolius",NA,NA,NA,NA,NA,NA,NA,NA,"Feist et al 2016",TRUE,TRUE,TRUE,NA,"holaspis",NA,NA,29.960444,-2.103028,NA,NA,NA,"Famennian",NA,NA,NA,NA,"VB, CM","VB","03/01/2023"
"272",NA,"lm.miss","WAM-07.277","Trimerocephaloides","Trimerocephaloides sinevisus",NA,NA,NA,NA,NA,NA,NA,NA,"Feist et al 2009",TRUE,TRUE,TRUE,NA,"holaspis",NA,NA,-18.721917,126.016389,NA,NA,NA,"Frasnian",NA,NA,NA,NA,"VB, CM","VB","03/01/2023"
"274",NA,"x","AMNH_28902","Viaphacops","Viaphacops stummi",NA,NA,NA,NA,NA,NA,NA,NA,"Eldredge 1973",TRUE,TRUE,TRUE,TRUE,"holaspis",NA,NA,NA,NA,NA,NA,NA,"Eifelian",NA,NA,NA,NA,"VB, CM","VB","03/01/2023"
"275",NA,"x","SMF-57512","Weyerites","Weyerites wocklumeriae",NA,NA,NA,NA,NA,NA,NA,NA,"Crônier and Feist 2000",TRUE,TRUE,TRUE,TRUE,"holaspis",NA,NA,51.379944,7.851806,NA,NA,NA,"Famennian",NA,NA,NA,NA,"VB, CM","VB","03/01/2023"
"279",NA,"x","MUA_1094_001","Phacops","Phacops tamtertensis",NA,"Phacops","Cronier et al 2013","Emmrich 1839","tamtertensis",NA,NA,NA,"Cronier et al 2013",TRUE,NA,NA,TRUE,"holaspis","Zereg","Algeria",29.917063,-1.919666,"Bechar","Tamtert","Argiles de Marhouma Formation","Famennian",NA,"Cronier et al 2013","Tindouf","carbonate","Munoz DF","Serra F",NA
"280",NA,"lm.miss","MUA_1094_007","Trimerocephalus","Trimerocephalus caecus",NA,"Phacops","Gürich 1896","McCoy 1849","caecus",NA,NA,NA,"Cronier et al 2013",TRUE,NA,NA,NA,"holaspis","Cheffar-El-Ahmar","Algeria",29.968699,-2.072511,"Bechar","Tamtert","Argiles de Marhouma Formation","Famennian",NA,"Cronier et al 2013","Tindouf","carbonate","Munoz DF","Serra F",NA
"281",NA,"lm.miss","MUA_1094_011","Dianops","Dianops vicarius",NA,"Dianops","Chlupác 1961","Richter and Richter 1923","typhlops vicarius",NA,NA,NA,"Cronier et al 2013",TRUE,NA,NA,NA,"holaspis","Zereg","Algeria",29.917063,-1.919666,"Bechar","Tamtert","Argiles de Marhouma Formation","Famennian",NA,"Cronier et al 2013","Tindouf","carbonate","Munoz DF","Serra F",NA
"282",NA,"x","MUGSr_A4_Ph123","Chotecops","Chotecops hoseri",NA,"Phacops (Chotecops)","Hawle and Corda 1847","Chlupác 1971","hoseri",NA,NA,NA,"Cronier et al 2016",TRUE,NA,NA,TRUE,"holaspis","Saoura Valley","Algeria",30.086644,-2.22791,"Béchar",NA,"Chefar el Ahmar Formation","Eifelian",NA,"Cronier et al 2016","Ougarta Basin","carbonate","Munoz DF","Serra F",NA
"283",NA,"x","MUGSr_S7_Ph003","Struveaspis","Struveaspis maroccanica",NA,"Struveaspis","Alberti 1970","Alberti 1966","maroccanica",NA,NA,NA,"Cronier et al 2018",TRUE,NA,NA,TRUE,"holaspis","Saoura Valley","Algeria",30.086644,-2.22791,"Béchar",NA,"Chefar el Ahmar Formation","Eifelian",NA,"Cronier et al 2018","Ougarta Basin","carbonate","Munoz DF","Serra F",NA
"284",NA,"x","NHMM_2016_006","Geesops","Geesops schlotheimi",NA,"Phacops","Bronn 1825","Struve 1972","schlotheimi",NA,NA,NA,"Van Viersen et al 2017",TRUE,NA,NA,TRUE,"holaspis","Trilobitenfelder","Germany",50.216748,6.683676,"Rhineland-Palatinate","Vulkaneifel","Ahrdorf Formation","Eifelian",NA,"Van Viersen et al 2017",NA,"carbonate","Munoz DF","Serra F",NA
"285","Eifelian","to.inc.eifelian","NML_8917","Phacopidella","Phacopidella glockeri",NA,"Phacops","Barrande 1846","Reed 1905","glockeri",NA,NA,NA,"Chlupac 1977",TRUE,NA,NA,TRUE,"holaspis","Lodenice","Czech Republic",49.983702,14.177715,"Prague",NA,"Liten Formation","Wenlock",NA,"Clupac 1977","Prague","siliciclastic","Munoz DF","Serra F",NA
"286",NA,"x","YPM_6594-4","Paciphacops","Paciphacops logani",NA,"Phacops","Hall 1861","Marksimova 1972","logani","Paciphacops",NA,NA,"Campbell 1977",TRUE,NA,NA,TRUE,"holaspis","John Boyd Thacher State Park","United States",42.656294,-74.016483,"New York","Albany","New Scotland Formation","Devonian",NA,"Campbell 1977","New York","carbonate","Munoz DF","Serra F",NA
